[
  {
    "name": "1d8a69a5-b692-47b7-aacb-b7f26692c0ec",
    "longitude": "‎13.404954",
    "latitude": "52.520008"
  },
  {
    "name": "6b423e19-9f02-4374-8391-5075a57ecfdc",
    "longitude": "‎11.576124",
    "latitude": "48.137154"
  },
  {
    "name": "34ff7f58-7de6-4156-9be8-e0b0a919bad6",
    "longitude": "9.73322",
    "latitude": "52.37052"
  },
  {
    "name": "71ed076a-e25a-4d7f-ba93-c72dd3522df2",
    "longitude": "8.682127",
    "latitude": "50.110924"
  },
  {
    "name": "812ff8ea-ef7e-48de-a084-916d0099bedd",
    "longitude": "8.239761",
    "latitude": "50.078217"
  },
  {
    "name": "a6e390e5-c28d-48f2-9f85-255acb38117f",
    "longitude": "10.68729",
    "latitude": "53.86893"
  },
  {
    "name": "af5a061c-2956-4473-8433-82da63342c89",
    "longitude": "‎9.993682",
    "latitude": "‎53.551086"
  },
  {
    "name": "c5db1945-a238-4ab4-9c2d-9adf6749b784",
    "longitude": "9.17702",
    "latitude": "48.78232"
  },
  {
    "name": "cf140ac3-4504-4936-9027-ab0366ee06fa",
    "longitude": "‎10.894446",
    "latitude": "‎48.366512"
  },
  {
    "name": "f3df916a-4e73-4f4a-98be-9c62e0d10d78",
    "longitude": "6.958307",
    "latitude": "50.941357"
  }
]